[
  {
    "id": "resort-bansko-bg",
    "name": "Bansko",
    "country": "Bulgaria",
    "region": "Blagoevgrad",
    "altitude_top": 2560,
    "altitude_base": 990,
    "vertical_drop": 1570,
    "slopes_km": 75,
    "lifts": 14,
    "lat": 41.8380,
    "lng": 23.4890,
    "snowpark": true,
    "night_skiing": true,
    "glacier": false,
    "website": "https://www.banskoski.com"
  },
  {
    "id": "resort-borovets-bg",
    "name": "Borovets",
    "country": "Bulgaria",
    "region": "Sofia Province",
    "altitude_top": 2560,
    "altitude_base": 1300,
    "vertical_drop": 1260,
    "slopes_km": 58,
    "lifts": 12,
    "lat": 42.2667,
    "lng": 23.6036,
    "snowpark": true,
    "night_skiing": true,
    "glacier": false,
    "website": "https://www.borovets-bg.com"
  },
  {
    "id": "resort-pamporovo-bg",
    "name": "Pamporovo",
    "country": "Bulgaria",
    "region": "Smolyan",
    "altitude_top": 1926,
    "altitude_base": 1450,
    "vertical_drop": 476,
    "slopes_km": 37,
    "lifts": 11,
    "lat": 41.6556,
    "lng": 24.6936,
    "snowpark": true,
    "night_skiing": true,
    "glacier": false,
    "website": "https://www.pamporovo.me"
  },
  {
    "id": "resort-vitosha-bg",
    "name": "Vitosha",
    "country": "Bulgaria",
    "region": "Sofia City",
    "altitude_top": 2290,
    "altitude_base": 1510,
    "vertical_drop": 780,
    "slopes_km": 29,
    "lifts": 14,
    "lat": 42.5854,
    "lng": 23.2786,
    "snowpark": false,
    "night_skiing": true,
    "glacier": false,
    "website": "https://vitoshaski.com"
  },
  {
    "id": "resort-chepelare-bg",
    "name": "Chepelare",
    "country": "Bulgaria",
    "region": "Smolyan",
    "altitude_top": 1873,
    "altitude_base": 1130,
    "vertical_drop": 743,
    "slopes_km": 20,
    "lifts": 5,
    "lat": 41.7333,
    "lng": 24.6833,
    "snowpark": false,
    "night_skiing": true,
    "glacier": false,
    "website": "https://www.chepelare-bg.com"
  },
  {
    "id": "resort-uzana-bg",
    "name": "Uzana",
    "country": "Bulgaria",
    "region": "Gabrovo",
    "altitude_top": 1520,
    "altitude_base": 1220,
    "vertical_drop": 300,
    "slopes_km": 8,
    "lifts": 3,
    "lat": 42.7869,
    "lng": 25.2225,
    "snowpark": false,
    "night_skiing": false,
    "glacier": false,
    "website": "https://uzana.bg"
  },
  {
    "id": "resort-panichishte-bg",
    "name": "Panichishte",
    "country": "Bulgaria",
    "region": "Kyustendil",
    "altitude_top": 2000,
    "altitude_base": 1350,
    "vertical_drop": 650,
    "slopes_km": 10,
    "lifts": 4,
    "lat": 42.2661,
    "lng": 23.2831,
    "snowpark": false,
    "night_skiing": false,
    "glacier": false,
    "website": "https://panichishte.com"
  },
  {
    "id": "resort-semkovo-bg",
    "name": "Semkovo",
    "country": "Bulgaria",
    "region": "Blagoevgrad",
    "altitude_top": 2200,
    "altitude_base": 1600,
    "vertical_drop": 600,
    "slopes_km": 4,
    "lifts": 2,
    "lat": 42.1330,
    "lng": 23.5660,
    "snowpark": false,
    "night_skiing": false,
    "glacier": false,
    "website": "https://semkovo.com"
  },
  {
    "id": "resort-kartala-bg",
    "name": "Kartala",
    "country": "Bulgaria",
    "region": "Blagoevgrad",
    "altitude_top": 2250,
    "altitude_base": 1750,
    "vertical_drop": 500,
    "slopes_km": 5,
    "lifts": 2,
    "lat": 42.0160,
    "lng": 23.1830,
    "snowpark": false,
    "night_skiing": false,
    "glacier": false,
    "website": "https://kartala.bg"
  },
  {
    "id": "resort-dobrinishte-bg",
    "name": "Dobrinishte",
    "country": "Bulgaria",
    "region": "Blagoevgrad",
    "altitude_top": 2236,
    "altitude_base": 1480,
    "vertical_drop": 756,
    "slopes_km": 7,
    "lifts": 3,
    "lat": 41.8194,
    "lng": 23.5647,
    "snowpark": false,
    "night_skiing": false,
    "glacier": false,
    "website": "https://dobrinishte-ski.com"
  },
  {
    "id": "resort-malovitsa-bg",
    "name": "Malyovitsa",
    "country": "Bulgaria",
    "region": "Sofia Province",
    "altitude_top": 2729,
    "altitude_base": 1730,
    "vertical_drop": 999,
    "slopes_km": 5,
    "lifts": 3,
    "lat": 42.1730,
    "lng": 23.3730,
    "snowpark": false,
    "night_skiing": false,
    "glacier": false,
    "website": "https://malyovitsa.com"
  },
  {
    "id": "resort-beklemeto-bg",
    "name": "Beklemeto",
    "country": "Bulgaria",
    "region": "Lovech",
    "altitude_top": 1650,
    "altitude_base": 1320,
    "vertical_drop": 330,
    "slopes_km": 6,
    "lifts": 2,
    "lat": 42.7830,
    "lng": 24.7160,
    "snowpark": false,
    "night_skiing": true,
    "glacier": false,
    "website": "https://beklemeto.bg"
  }
]