[
  {
    "id": "resort-yabuli-cn",
    "name": "Yabuli Ski Resort",
    "country": "China",
    "region": "Heilongjiang",
    "altitude_top": 1374,
    "altitude_base": 480,
    "vertical_drop": 894,
    "slopes_km": 50,
    "lifts": 17,
    "lat": 44.9371,
    "lng": 128.5360,
    "snowpark": true,
    "night_skiing": true,
    "glacier": false,
    "website": "https://www.yabuliski.com"
  },
  {
    "id": "resort-wanlong-cn",
    "name": "Wanlong Ski Resort",
    "country": "China",
    "region": "Hebei",
    "altitude_top": 2110,
    "altitude_base": 1380,
    "vertical_drop": 730,
    "slopes_km": 32,
    "lifts": 11,
    "lat": 40.9590,
    "lng": 115.2790,
    "snowpark": true,
    "night_skiing": true,
    "glacier": false,
    "website": "https://www.wlski.com"
  },
  {
    "id": "resort-thaiwoo-cn",
    "name": "Thaiwoo Ski Resort",
    "country": "China",
    "region": "Hebei",
    "altitude_top": 2160,
    "altitude_base": 1450,
    "vertical_drop": 710,
    "slopes_km": 30,
    "lifts": 12,
    "lat": 40.9724,
    "lng": 115.2848,
    "snowpark": true,
    "night_skiing": true,
    "glacier": false,
    "website": "https://www.thaiwoo.com"
  },
  {
    "id": "resort-genting-secret-garden-cn",
    "name": "Genting Secret Garden",
    "country": "China",
    "region": "Hebei",
    "altitude_top": 2160,
    "altitude_base": 1420,
    "vertical_drop": 740,
    "slopes_km": 35,
    "lifts": 14,
    "lat": 40.9657,
    "lng": 115.2812,
    "snowpark": true,
    "night_skiing": true,
    "glacier": false,
    "website": "https://www.gentingskigarden.com"
  },
  {
    "id": "resort-changbaishan-cn",
    "name": "Changbaishan International Resort",
    "country": "China",
    "region": "Jilin",
    "altitude_top": 1640,
    "altitude_base": 770,
    "vertical_drop": 870,
    "slopes_km": 43,
    "lifts": 9,
    "lat": 41.7266,
    "lng": 127.7535,
    "snowpark": true,
    "night_skiing": false,
    "glacier": false,
    "website": "https://www.cbsr.com.cn"
  },
  {
    "id": "resort-beidahu-cn",
    "name": "Beidahu Ski Resort",
    "country": "China",
    "region": "Jilin",
    "altitude_top": 1408,
    "altitude_base": 520,
    "vertical_drop": 888,
    "slopes_km": 64,
    "lifts": 11,
    "lat": 43.3808,
    "lng": 126.6892,
    "snowpark": true,
    "night_skiing": true,
    "glacier": false,
    "website": "https://www.beidahuski.com"
  },
  {
    "id": "resort-jiangjunshan-cn",
    "name": "Jiangjunshan Ski Resort",
    "country": "China",
    "region": "Xinjiang",
    "altitude_top": 2040,
    "altitude_base": 900,
    "vertical_drop": 1140,
    "slopes_km": 45,
    "lifts": 7,
    "lat": 47.0005,
    "lng": 88.0923,
    "snowpark": true,
    "night_skiing": false,
    "glacier": false,
    "website": "https://www.jjsski.com"
  },
  {
    "id": "resort-altay-general-mountain-cn",
    "name": "Altay General Mountain",
    "country": "China",
    "region": "Xinjiang",
    "altitude_top": 3100,
    "altitude_base": 1200,
    "vertical_drop": 1900,
    "slopes_km": 70,
    "lifts": 8,
    "lat": 47.8483,
    "lng": 88.1318,
    "snowpark": false,
    "night_skiing": false,
    "glacier": false,
    "website": "https://www.xjaltaytravel.com"
  },
  {
    "id": "resort-jade-dragon-cn",
    "name": "Jade Dragon Snow Mountain",
    "country": "China",
    "region": "Yunnan",
    "altitude_top": 4700,
    "altitude_base": 3400,
    "vertical_drop": 1300,
    "slopes_km": 20,
    "lifts": 5,
    "lat": 27.1034,
    "lng": 100.1872,
    "snowpark": false,
    "night_skiing": false,
    "glacier": true,
    "website": "https://www.lijiangtourism.com"
  },
  {
    "id": "resort-xiling-snow-mountain-cn",
    "name": "Xiling Snow Mountain",
    "country": "China",
    "region": "Sichuan",
    "altitude_top": 3250,
    "altitude_base": 1260,
    "vertical_drop": 1990,
    "slopes_km": 15,
    "lifts": 6,
    "lat": 30.6943,
    "lng": 103.1665,
    "snowpark": false,
    "night_skiing": false,
    "glacier": false,
    "website": "https://www.xiling.cn"
  },
  {
    "id": "resort-nanshan-cn",
    "name": "Nanshan Ski Village",
    "country": "China",
    "region": "Beijing",
    "altitude_top": 600,
    "altitude_base": 390,
    "vertical_drop": 210,
    "slopes_km": 25,
    "lifts": 7,
    "lat": 40.4707,
    "lng": 116.6524,
    "snowpark": true,
    "night_skiing": true,
    "glacier": false,
    "website": "https://www.nanshanski.com"
  },
  {
    "id": "resort-jundushan-cn",
    "name": "Jundushan Ski Resort",
    "country": "China",
    "region": "Beijing",
    "altitude_top": 1160,
    "altitude_base": 820,
    "vertical_drop": 340,
    "slopes_km": 10,
    "lifts": 4,
    "lat": 40.2205,
    "lng": 116.2714,
    "snowpark": false,
    "night_skiing": true,
    "glacier": false,
    "website": "https://www.jundushan.net"
  },
  {
    "id": "resort-taiziling-cn",
    "name": "Taiziling Ski Resort",
    "country": "China",
    "region": "Sichuan",
    "altitude_top": 2600,
    "altitude_base": 1800,
    "vertical_drop": 800,
    "slopes_km": 9,
    "lifts": 3,
    "lat": 31.5572,
    "lng": 103.9115,
    "snowpark": false,
    "night_skiing": false,
    "glacier": false,
    "website": "https://www.taiziling.com"
  },
  {
    "id": "resort-fulong-cn",
    "name": "Fulong Ski Resort",
    "country": "China",
    "region": "Hebei",
    "altitude_top": 2110,
    "altitude_base": 1380,
    "vertical_drop": 730,
    "slopes_km": 37,
    "lifts": 9,
    "lat": 40.9601,
    "lng": 115.2807,
    "snowpark": true,
    "night_skiing": true,
    "glacier": false,
    "website": "https://www.fulong.com"
  }
]