[
  {
    "id": "resort-sljeme-hr",
    "name": "Sljeme",
    "country": "Croatia",
    "region": "Zagreb",
    "altitude_top": 1030,
    "altitude_base": 750,
    "vertical_drop": 280,
    "slopes_km": 6,
    "lifts": 4,
    "lat": 45.8997,
    "lng": 15.9675,
    "snowpark": false,
    "night_skiing": true,
    "glacier": false,
    "website": "https://www.sljeme.hr"
  },
  {
    "id": "resort-platak-hr",
    "name": "Platak",
    "country": "Croatia",
    "region": "Primorje-Gorski Kotar",
    "altitude_top": 1363,
    "altitude_base": 1111,
    "vertical_drop": 252,
    "slopes_km": 10,
    "lifts": 5,
    "lat": 45.4320,
    "lng": 14.5785,
    "snowpark": false,
    "night_skiing": true,
    "glacier": false,
    "website": "https://www.platak.hr"
  },
  {
    "id": "resort-bjelolasica-hr",
    "name": "Bjelolasica",
    "country": "Croatia",
    "region": "Karlovac",
    "altitude_top": 1534,
    "altitude_base": 620,
    "vertical_drop": 914,
    "slopes_km": 15,
    "lifts": 6,
    "lat": 45.2712,
    "lng": 14.9305,
    "snowpark": false,
    "night_skiing": false,
    "glacier": false,
    "website": "https://www.bjelolasica.hr"
  },
  {
    "id": "resort-celimbasa-hr",
    "name": "Čelimbaša",
    "country": "Croatia",
    "region": "Primorje-Gorski Kotar",
    "altitude_top": 890,
    "altitude_base": 720,
    "vertical_drop": 170,
    "slopes_km": 3,
    "lifts": 2,
    "lat": 45.3088,
    "lng": 14.7217,
    "snowpark": false,
    "night_skiing": true,
    "glacier": false,
    "website": "https://www.delnice.hr"
  },
  {
    "id": "resort-trsce-hr",
    "name": "Tršće",
    "country": "Croatia",
    "region": "Primorje-Gorski Kotar",
    "altitude_top": 950,
    "altitude_base": 820,
    "vertical_drop": 130,
    "slopes_km": 2,
    "lifts": 1,
    "lat": 45.6351,
    "lng": 14.6519,
    "snowpark": false,
    "night_skiing": false,
    "glacier": false,
    "website": "https://www.gorskikotar.hr"
  },
  {
    "id": "resort-mukinje-hr",
    "name": "Mukinje",
    "country": "Croatia",
    "region": "Lika-Senj",
    "altitude_top": 720,
    "altitude_base": 620,
    "vertical_drop": 100,
    "slopes_km": 1,
    "lifts": 1,
    "lat": 44.8921,
    "lng": 15.6163,
    "snowpark": false,
    "night_skiing": false,
    "glacier": false,
    "website": "https://np-plitvicka-jezera.hr"
  }
]