[
  {
    "id": "resort-garmisch-classic-de",
    "name": "Garmisch-Classic",
    "country": "Germany",
    "region": "Bavaria",
    "altitude_top": 2050,
    "altitude_base": 720,
    "vertical_drop": 1330,
    "slopes_km": 40,
    "lifts": 18,
    "lat": 47.4917,
    "lng": 11.0956,
    "snowpark": true,
    "night_skiing": true,
    "glacier": false,
    "website": "https://www.garmisch-classic.de"
  },
  {
    "id": "resort-zugspitze-de",
    "name": "Zugspitze",
    "country": "Germany",
    "region": "Bavaria",
    "altitude_top": 2720,
    "altitude_base": 2000,
    "vertical_drop": 720,
    "slopes_km": 20,
    "lifts": 10,
    "lat": 47.4211,
    "lng": 10.9858,
    "snowpark": false,
    "night_skiing": false,
    "glacier": true,
    "website": "https://zugspitze.de"
  },
  {
    "id": "resort-obersdorf-kleinwalsertal-de",
    "name": "Oberstdorf-Kleinwalsertal",
    "country": "Germany",
    "region": "Bavaria",
    "altitude_top": 2224,
    "altitude_base": 813,
    "vertical_drop": 1411,
    "slopes_km": 130,
    "lifts": 48,
    "lat": 47.4056,
    "lng": 10.2797,
    "snowpark": true,
    "night_skiing": true,
    "glacier": false,
    "website": "https://www.ok-bergbahnen.com"
  },
  {
    "id": "resort-fellhorn-kanzelwand-de",
    "name": "Fellhorn/Kanzelwand",
    "country": "Germany",
    "region": "Bavaria",
    "altitude_top": 1967,
    "altitude_base": 920,
    "vertical_drop": 1047,
    "slopes_km": 36,
    "lifts": 14,
    "lat": 47.3525,
    "lng": 10.2126,
    "snowpark": true,
    "night_skiing": false,
    "glacier": false,
    "website": "https://www.ok-bergbahnen.com"
  },
  {
    "id": "resort-brauneck-de",
    "name": "Brauneck",
    "country": "Germany",
    "region": "Bavaria",
    "altitude_top": 1556,
    "altitude_base": 700,
    "vertical_drop": 856,
    "slopes_km": 34,
    "lifts": 18,
    "lat": 47.6619,
    "lng": 11.5417,
    "snowpark": true,
    "night_skiing": true,
    "glacier": false,
    "website": "https://www.brauneck-bergbahn.de"
  },
  {
    "id": "resort-winklmoosalm-de",
    "name": "Winklmoosalm",
    "country": "Germany",
    "region": "Bavaria",
    "altitude_top": 1680,
    "altitude_base": 740,
    "vertical_drop": 940,
    "slopes_km": 42,
    "lifts": 12,
    "lat": 47.6655,
    "lng": 12.5641,
    "snowpark": false,
    "night_skiing": false,
    "glacier": false,
    "website": "https://winklmoosalm.de"
  },
  {
    "id": "resort-feldberg-de",
    "name": "Feldberg",
    "country": "Germany",
    "region": "Baden-Württemberg",
    "altitude_top": 1450,
    "altitude_base": 950,
    "vertical_drop": 500,
    "slopes_km": 30,
    "lifts": 17,
    "lat": 47.8583,
    "lng": 8.0397,
    "snowpark": true,
    "night_skiing": true,
    "glacier": false,
    "website": "https://www.liftverbund-feldberg.de"
  },
  {
    "id": "resort-arber-de",
    "name": "Großer Arber",
    "country": "Germany",
    "region": "Bavaria",
    "altitude_top": 1456,
    "altitude_base": 1050,
    "vertical_drop": 406,
    "slopes_km": 13,
    "lifts": 6,
    "lat": 49.1127,
    "lng": 13.1427,
    "snowpark": false,
    "night_skiing": true,
    "glacier": false,
    "website": "https://www.arber.de"
  },
  {
    "id": "resort-sudelfeld-de",
    "name": "Sudelfeld",
    "country": "Germany",
    "region": "Bavaria",
    "altitude_top": 1563,
    "altitude_base": 850,
    "vertical_drop": 713,
    "slopes_km": 31,
    "lifts": 13,
    "lat": 47.6772,
    "lng": 12.0428,
    "snowpark": true,
    "night_skiing": false,
    "glacier": false,
    "website": "https://www.sudelfeld.de"
  },
  {
    "id": "resort-oberjoch-de",
    "name": "Oberjoch",
    "country": "Germany",
    "region": "Bavaria",
    "altitude_top": 1559,
    "altitude_base": 1130,
    "vertical_drop": 429,
    "slopes_km": 32,
    "lifts": 8,
    "lat": 47.5556,
    "lng": 10.4336,
    "snowpark": true,
    "night_skiing": true,
    "glacier": false,
    "website": "https://www.oberjochresort.de"
  },
  {
    "id": "resort-geisskopf-de",
    "name": "Geißkopf",
    "country": "Germany",
    "region": "Bavaria",
    "altitude_top": 1097,
    "altitude_base": 730,
    "vertical_drop": 367,
    "slopes_km": 8,
    "lifts": 9,
    "lat": 48.9167,
    "lng": 13.1167,
    "snowpark": true,
    "night_skiing": true,
    "glacier": false,
    "website": "https://www.geisskopf.de"
  },
  {
    "id": "resort-winterberg-de",
    "name": "Winterberg",
    "country": "Germany",
    "region": "North Rhine-Westphalia",
    "altitude_top": 820,
    "altitude_base": 630,
    "vertical_drop": 190,
    "slopes_km": 27,
    "lifts": 24,
    "lat": 51.1927,
    "lng": 8.5335,
    "snowpark": true,
    "night_skiing": true,
    "glacier": false,
    "website": "https://www.skiliftkarussell.de"
  },
  {
    "id": "resort-willingen-de",
    "name": "Willingen",
    "country": "Germany",
    "region": "Hesse",
    "altitude_top": 838,
    "altitude_base": 580,
    "vertical_drop": 258,
    "slopes_km": 17,
    "lifts": 16,
    "lat": 51.2925,
    "lng": 8.6094,
    "snowpark": true,
    "night_skiing": true,
    "glacier": false,
    "website": "https://www.willingen.de"
  }
]