[
  {
    "id": "resort-parnassos-gr",
    "name": "Parnassos Ski Center",
    "country": "Greece",
    "region": "Central Greece",
    "altitude_top": 2260,
    "altitude_base": 1640,
    "vertical_drop": 620,
    "slopes_km": 36,
    "lifts": 17,
    "lat": 38.5537,
    "lng": 22.6005,
    "snowpark": false,
    "night_skiing": false,
    "glacier": false,
    "website": "https://parnassos-ski.gr"
  },
  {
    "id": "resort-kalavryta-gr",
    "name": "Kalavryta",
    "country": "Greece",
    "region": "Western Greece",
    "altitude_top": 2340,
    "altitude_base": 1700,
    "vertical_drop": 640,
    "slopes_km": 20,
    "lifts": 9,
    "lat": 38.0321,
    "lng": 22.1912,
    "snowpark": true,
    "night_skiing": false,
    "glacier": false,
    "website": "https://www.kalavrita-ski.gr"
  },
  {
    "id": "resort-vasilitsa-gr",
    "name": "Vasilitsa",
    "country": "Greece",
    "region": "Western Macedonia",
    "altitude_top": 2113,
    "altitude_base": 1646,
    "vertical_drop": 467,
    "slopes_km": 16,
    "lifts": 8,
    "lat": 40.0410,
    "lng": 21.1067,
    "snowpark": true,
    "night_skiing": false,
    "glacier": false,
    "website": "https://www.vasilitsa.com"
  },
  {
    "id": "resort-kajmaktsalan-gr",
    "name": "Kaimaktsalan",
    "country": "Greece",
    "region": "Central Macedonia",
    "altitude_top": 2480,
    "altitude_base": 2050,
    "vertical_drop": 430,
    "slopes_km": 13,
    "lifts": 7,
    "lat": 40.8875,
    "lng": 21.7840,
    "snowpark": false,
    "night_skiing": false,
    "glacier": false,
    "website": "https://www.kaimaktsalan.gr"
  },
  {
    "id": "resort-seli-gr",
    "name": "Seli",
    "country": "Greece",
    "region": "Central Macedonia",
    "altitude_top": 1880,
    "altitude_base": 1430,
    "vertical_drop": 450,
    "slopes_km": 20,
    "lifts": 8,
    "lat": 40.5369,
    "lng": 22.0244,
    "snowpark": false,
    "night_skiing": true,
    "glacier": false,
    "website": "https://www.seli-ski.gr"
  },
  {
    "id": "resort-pigadia-gr",
    "name": "3-5 Pigadia",
    "country": "Greece",
    "region": "Central Macedonia",
    "altitude_top": 2005,
    "altitude_base": 1430,
    "vertical_drop": 575,
    "slopes_km": 14,
    "lifts": 7,
    "lat": 40.4384,
    "lng": 21.9747,
    "snowpark": false,
    "night_skiing": true,
    "glacier": false,
    "website": "https://www.3-5pigadia.gr"
  },
  {
    "id": "resort-falakro-gr",
    "name": "Falakro",
    "country": "Greece",
    "region": "Eastern Macedonia and Thrace",
    "altitude_top": 2232,
    "altitude_base": 1720,
    "vertical_drop": 512,
    "slopes_km": 20,
    "lifts": 9,
    "lat": 41.2745,
    "lng": 24.0952,
    "snowpark": false,
    "night_skiing": false,
    "glacier": false,
    "website": "https://www.falakro.gr"
  },
  {
    "id": "resort-velouchi-gr",
    "name": "Velouchi",
    "country": "Greece",
    "region": "Central Greece",
    "altitude_top": 1840,
    "altitude_base": 1410,
    "vertical_drop": 430,
    "slopes_km": 10,
    "lifts": 5,
    "lat": 38.8927,
    "lng": 21.8165,
    "snowpark": false,
    "night_skiing": false,
    "glacier": false,
    "website": "https://www.velouchi-ski.gr"
  },
  {
    "id": "resort-mainalo-gr",
    "name": "Mainalo",
    "country": "Greece",
    "region": "Peloponnese",
    "altitude_top": 1600,
    "altitude_base": 1350,
    "vertical_drop": 250,
    "slopes_km": 5,
    "lifts": 3,
    "lat": 37.6358,
    "lng": 22.2887,
    "snowpark": false,
    "night_skiing": false,
    "glacier": false,
    "website": "https://mainalo-ski.gr"
  },
  {
    "id": "resort-anilio-gr",
    "name": "Anilio",
    "country": "Greece",
    "region": "Epirus",
    "altitude_top": 1850,
    "altitude_base": 1450,
    "vertical_drop": 400,
    "slopes_km": 8,
    "lifts": 4,
    "lat": 39.8946,
    "lng": 21.1037,
    "snowpark": false,
    "night_skiing": false,
    "glacier": false,
    "website": "https://anilio-park.gr"
  }
]