[
  {
    "id": "resort-niseko-jp",
    "name": "Niseko United",
    "country": "Japan",
    "region": "Hokkaido",
    "altitude_top": 1308,
    "altitude_base": 255,
    "vertical_drop": 1053,
    "slopes_km": 50,
    "lifts": 38,
    "lat": 42.8048,
    "lng": 140.6874,
    "snowpark": true,
    "night_skiing": true,
    "glacier": false,
    "website": "https://www.niseko.ne.jp"
  },
  {
    "id": "resort-hakuba-jp",
    "name": "Hakuba Valley",
    "country": "Japan",
    "region": "Nagano",
    "altitude_top": 1831,
    "altitude_base": 750,
    "vertical_drop": 1081,
    "slopes_km": 137,
    "lifts": 135,
    "lat": 36.6982,
    "lng": 137.8619,
    "snowpark": true,
    "night_skiing": true,
    "glacier": false,
    "website": "https://www.hakubavalley.com"
  },
  {
    "id": "resort-rusutsu-jp",
    "name": "Rusutsu",
    "country": "Japan",
    "region": "Hokkaido",
    "altitude_top": 994,
    "altitude_base": 400,
    "vertical_drop": 594,
    "slopes_km": 42,
    "lifts": 18,
    "lat": 42.7372,
    "lng": 140.8718,
    "snowpark": true,
    "night_skiing": true,
    "glacier": false,
    "website": "https://rusutsu.com"
  },
  {
    "id": "resort-furano-jp",
    "name": "Furano",
    "country": "Japan",
    "region": "Hokkaido",
    "altitude_top": 1209,
    "altitude_base": 245,
    "vertical_drop": 964,
    "slopes_km": 28,
    "lifts": 9,
    "lat": 43.3408,
    "lng": 142.3830,
    "snowpark": true,
    "night_skiing": true,
    "glacier": false,
    "website": "https://www.princehotels.com/furano"
  },
  {
    "id": "resort-nozawa-onsen-jp",
    "name": "Nozawa Onsen",
    "country": "Japan",
    "region": "Nagano",
    "altitude_top": 1650,
    "altitude_base": 565,
    "vertical_drop": 1085,
    "slopes_km": 50,
    "lifts": 20,
    "lat": 36.9207,
    "lng": 138.4427,
    "snowpark": true,
    "night_skiing": true,
    "glacier": false,
    "website": "https://www.nozawaski.com"
  },
  {
    "id": "resort-shiga-kogen-jp",
    "name": "Shiga Kogen",
    "country": "Japan",
    "region": "Nagano",
    "altitude_top": 2307,
    "altitude_base": 1330,
    "vertical_drop": 977,
    "slopes_km": 80,
    "lifts": 52,
    "lat": 36.7445,
    "lng": 138.5175,
    "snowpark": true,
    "night_skiing": false,
    "glacier": false,
    "website": "https://www.shigakogen-ski.com"
  },
  {
    "id": "resort-zao-onsen-jp",
    "name": "Zao Onsen",
    "country": "Japan",
    "region": "Yamagata",
    "altitude_top": 1661,
    "altitude_base": 855,
    "vertical_drop": 806,
    "slopes_km": 25,
    "lifts": 38,
    "lat": 38.1660,
    "lng": 140.3888,
    "snowpark": false,
    "night_skiing": true,
    "glacier": false,
    "website": "https://zaomountainresort.com"
  },
  {
    "id": "resort-appi-kogen-jp",
    "name": "Appi Kogen",
    "country": "Japan",
    "region": "Iwate",
    "altitude_top": 1304,
    "altitude_base": 640,
    "vertical_drop": 664,
    "slopes_km": 45,
    "lifts": 21,
    "lat": 40.0054,
    "lng": 140.9604,
    "snowpark": true,
    "night_skiing": true,
    "glacier": false,
    "website": "https://www.appi-japan.com"
  },
  {
    "id": "resort-kiroro-jp",
    "name": "Kiroro",
    "country": "Japan",
    "region": "Hokkaido",
    "altitude_top": 1180,
    "altitude_base": 570,
    "vertical_drop": 610,
    "slopes_km": 30,
    "lifts": 9,
    "lat": 43.0794,
    "lng": 140.9828,
    "snowpark": true,
    "night_skiing": false,
    "glacier": false,
    "website": "https://www.kiroro.co.jp"
  },
  {
    "id": "resort-tomamu-jp",
    "name": "Tomamu",
    "country": "Japan",
    "region": "Hokkaido",
    "altitude_top": 1239,
    "altitude_base": 540,
    "vertical_drop": 699,
    "slopes_km": 29,
    "lifts": 6,
    "lat": 42.6828,
    "lng": 142.0174,
    "snowpark": true,
    "night_skiing": true,
    "glacier": false,
    "website": "https://www.snowtomamu.jp"
  },
  {
    "id": "resort-naeba-jp",
    "name": "Naeba",
    "country": "Japan",
    "region": "Niigata",
    "altitude_top": 1789,
    "altitude_base": 900,
    "vertical_drop": 889,
    "slopes_km": 22,
    "lifts": 13,
    "lat": 36.7890,
    "lng": 138.7790,
    "snowpark": true,
    "night_skiing": true,
    "glacier": false,
    "website": "https://www.princehotels.com/naeba"
  },
  {
    "id": "resort-myoko-kogen-jp",
    "name": "Myoko Kogen",
    "country": "Japan",
    "region": "Niigata",
    "altitude_top": 1855,
    "altitude_base": 731,
    "vertical_drop": 1124,
    "slopes_km": 50,
    "lifts": 27,
    "lat": 36.8940,
    "lng": 138.1702,
    "snowpark": true,
    "night_skiing": false,
    "glacier": false,
    "website": "https://www.myoko.ne.jp"
  },
  {
    "id": "resort-gran-hirafu-jp",
    "name": "Grand Hirafu",
    "country": "Japan",
    "region": "Hokkaido",
    "altitude_top": 1200,
    "altitude_base": 300,
    "vertical_drop": 900,
    "slopes_km": 30,
    "lifts": 13,
    "lat": 42.8570,
    "lng": 140.7047,
    "snowpark": true,
    "night_skiing": true,
    "glacier": false,
    "website": "https://www.grand-hirafu.jp"
  },
  {
    "id": "resort-madarao-jp",
    "name": "Madarao",
    "country": "Japan",
    "region": "Nagano",
    "altitude_top": 1377,
    "altitude_base": 910,
    "vertical_drop": 467,
    "slopes_km": 30,
    "lifts": 15,
    "lat": 36.8512,
    "lng": 138.2898,
    "snowpark": true,
    "night_skiing": false,
    "glacier": false,
    "website": "https://www.madarao.jp"
  },
  {
    "id": "resort-geto-kogen-jp",
    "name": "Geto Kogen",
    "country": "Japan",
    "region": "Iwate",
    "altitude_top": 1070,
    "altitude_base": 640,
    "vertical_drop": 430,
    "slopes_km": 14,
    "lifts": 5,
    "lat": 39.2722,
    "lng": 140.9424,
    "snowpark": true,
    "night_skiing": false,
    "glacier": false,
    "website": "https://www.getokogen.com"
  }
]