[
  {
    "id": "resort-coronet-peak-nz",
    "name": "Coronet Peak",
    "country": "New Zealand",
    "region": "Otago",
    "altitude_top": 1649,
    "altitude_base": 1180,
    "vertical_drop": 469,
    "slopes_km": 40,
    "lifts": 8,
    "lat": -44.9385,
    "lng": 168.7381,
    "snowpark": true,
    "night_skiing": true,
    "glacier": false,
    "website": "https://www.coronetpeak.co.nz"
  },
  {
    "id": "resort-the-remarkables-nz",
    "name": "The Remarkables",
    "country": "New Zealand",
    "region": "Otago",
    "altitude_top": 1943,
    "altitude_base": 1260,
    "vertical_drop": 683,
    "slopes_km": 30,
    "lifts": 7,
    "lat": -45.0575,
    "lng": 168.7808,
    "snowpark": true,
    "night_skiing": false,
    "glacier": false,
    "website": "https://www.theremarkables.co.nz"
  },
  {
    "id": "resort-cardrona-nz",
    "name": "Cardrona",
    "country": "New Zealand",
    "region": "Otago",
    "altitude_top": 1860,
    "altitude_base": 1260,
    "vertical_drop": 600,
    "slopes_km": 40,
    "lifts": 8,
    "lat": -44.8715,
    "lng": 168.9493,
    "snowpark": true,
    "night_skiing": false,
    "glacier": false,
    "website": "https://www.cardrona.com"
  },
  {
    "id": "resort-treble-cone-nz",
    "name": "Treble Cone",
    "country": "New Zealand",
    "region": "Otago",
    "altitude_top": 1960,
    "altitude_base": 1260,
    "vertical_drop": 700,
    "slopes_km": 22,
    "lifts": 4,
    "lat": -44.6955,
    "lng": 169.0074,
    "snowpark": true,
    "night_skiing": false,
    "glacier": false,
    "website": "https://www.treblecone.com"
  },
  {
    "id": "resort-mt-hutt-nz",
    "name": "Mt Hutt",
    "country": "New Zealand",
    "region": "Canterbury",
    "altitude_top": 2086,
    "altitude_base": 1438,
    "vertical_drop": 648,
    "slopes_km": 40,
    "lifts": 5,
    "lat": -43.4854,
    "lng": 171.5407,
    "snowpark": true,
    "night_skiing": false,
    "glacier": false,
    "website": "https://www.mthutt.co.nz"
  },
  {
    "id": "resort-whakapapa-nz",
    "name": "Whakapapa",
    "country": "New Zealand",
    "region": "Manawatū-Whanganui",
    "altitude_top": 2322,
    "altitude_base": 1630,
    "vertical_drop": 692,
    "slopes_km": 65,
    "lifts": 16,
    "lat": -39.2818,
    "lng": 175.5782,
    "snowpark": true,
    "night_skiing": false,
    "glacier": false,
    "website": "https://www.mtruapehu.com"
  },
  {
    "id": "resort-turoa-nz",
    "name": "Tūroa",
    "country": "New Zealand",
    "region": "Manawatū-Whanganui",
    "altitude_top": 2322,
    "altitude_base": 1600,
    "vertical_drop": 722,
    "slopes_km": 50,
    "lifts": 7,
    "lat": -39.3198,
    "lng": 175.4644,
    "snowpark": true,
    "night_skiing": false,
    "glacier": false,
    "website": "https://www.mtruapehu.com"
  },
  {
    "id": "resort-porters-nz",
    "name": "Porters",
    "country": "New Zealand",
    "region": "Canterbury",
    "altitude_top": 1980,
    "altitude_base": 1300,
    "vertical_drop": 680,
    "slopes_km": 20,
    "lifts": 5,
    "lat": -43.2966,
    "lng": 171.7085,
    "snowpark": true,
    "night_skiing": false,
    "glacier": false,
    "website": "https://www.skiporters.co.nz"
  },
  {
    "id": "resort-craigieburn-nz",
    "name": "Craigieburn Valley",
    "country": "New Zealand",
    "region": "Canterbury",
    "altitude_top": 1811,
    "altitude_base": 1308,
    "vertical_drop": 503,
    "slopes_km": 10,
    "lifts": 3,
    "lat": -43.1552,
    "lng": 171.7162,
    "snowpark": false,
    "night_skiing": false,
    "glacier": false,
    "website": "https://www.craigieburn.co.nz"
  },
  {
    "id": "resort-roundhill-nz",
    "name": "Roundhill",
    "country": "New Zealand",
    "region": "Canterbury",
    "altitude_top": 2133,
    "altitude_base": 1350,
    "vertical_drop": 783,
    "slopes_km": 14,
    "lifts": 3,
    "lat": -43.8118,
    "lng": 170.8865,
    "snowpark": true,
    "night_skiing": false,
    "glacier": false,
    "website": "https://www.roundhill.co.nz"
  },
  {
    "id": "resort-ohau-nz",
    "name": "Ōhau",
    "country": "New Zealand",
    "region": "Canterbury",
    "altitude_top": 1825,
    "altitude_base": 1425,
    "vertical_drop": 400,
    "slopes_km": 15,
    "lifts": 3,
    "lat": -44.2335,
    "lng": 169.8516,
    "snowpark": false,
    "night_skiing": false,
    "glacier": false,
    "website": "https://www.ohau.co.nz"
  },
  {
    "id": "resort-temple-basin-nz",
    "name": "Temple Basin",
    "country": "New Zealand",
    "region": "Canterbury",
    "altitude_top": 1923,
    "altitude_base": 1320,
    "vertical_drop": 603,
    "slopes_km": 10,
    "lifts": 3,
    "lat": -43.2162,
    "lng": 171.7440,
    "snowpark": false,
    "night_skiing": false,
    "glacier": false,
    "website": "https://www.templebasin.co.nz"
  }
]