[
  {
    "id": "resort-rosa-khutor-ru",
    "name": "Rosa Khutor",
    "country": "Russia",
    "region": "Krasnodar Krai",
    "altitude_top": 2509,
    "altitude_base": 560,
    "vertical_drop": 1949,
    "slopes_km": 102,
    "lifts": 29,
    "lat": 43.6728,
    "lng": 40.2961,
    "snowpark": true,
    "night_skiing": true,
    "glacier": false,
    "website": "https://rosakhutor.com"
  },
  {
    "id": "resort-krasnaya-polyana-ru",
    "name": "Krasnaya Polyana",
    "country": "Russia",
    "region": "Krasnodar Krai",
    "altitude_top": 2300,
    "altitude_base": 540,
    "vertical_drop": 1760,
    "slopes_km": 30,
    "lifts": 13,
    "lat": 43.6845,
    "lng": 40.2642,
    "snowpark": true,
    "night_skiing": true,
    "glacier": false,
    "website": "https://krasnayapolyanaresort.ru"
  },
  {
    "id": "resort-gazprom-laura-ru",
    "name": "Gazprom Laura",
    "country": "Russia",
    "region": "Krasnodar Krai",
    "altitude_top": 1660,
    "altitude_base": 540,
    "vertical_drop": 1120,
    "slopes_km": 35,
    "lifts": 14,
    "lat": 43.6849,
    "lng": 40.2594,
    "snowpark": true,
    "night_skiing": true,
    "glacier": false,
    "website": "https://polyanaski.ru"
  },
  {
    "id": "resort-sheregesh-ru",
    "name": "Sheregesh",
    "country": "Russia",
    "region": "Kemerovo Oblast",
    "altitude_top": 1570,
    "altitude_base": 680,
    "vertical_drop": 890,
    "slopes_km": 56,
    "lifts": 22,
    "lat": 52.9531,
    "lng": 87.9568,
    "snowpark": true,
    "night_skiing": true,
    "glacier": false,
    "website": "https://gesh.info"
  },
  {
    "id": "resort-dombay-ru",
    "name": "Dombay",
    "country": "Russia",
    "region": "Karachay-Cherkessia",
    "altitude_top": 3168,
    "altitude_base": 1630,
    "vertical_drop": 1538,
    "slopes_km": 25,
    "lifts": 12,
    "lat": 43.2905,
    "lng": 41.6258,
    "snowpark": false,
    "night_skiing": false,
    "glacier": true,
    "website": "https://dombaj.ru"
  },
  {
    "id": "resort-elbrus-ru",
    "name": "Elbrus",
    "country": "Russia",
    "region": "Kabardino-Balkaria",
    "altitude_top": 3847,
    "altitude_base": 2350,
    "vertical_drop": 1497,
    "slopes_km": 23,
    "lifts": 7,
    "lat": 43.2602,
    "lng": 42.4768,
    "snowpark": false,
    "night_skiing": false,
    "glacier": true,
    "website": "https://resort-elbrus.ru"
  },
  {
    "id": "resort-arkhyz-ru",
    "name": "Arkhyz",
    "country": "Russia",
    "region": "Karachay-Cherkessia",
    "altitude_top": 2505,
    "altitude_base": 1650,
    "vertical_drop": 855,
    "slopes_km": 27,
    "lifts": 9,
    "lat": 43.5605,
    "lng": 41.1806,
    "snowpark": true,
    "night_skiing": true,
    "glacier": false,
    "website": "https://arkhyz-resort.ru"
  },
  {
    "id": "resort-belokurikha-ru",
    "name": "Belokurikha",
    "country": "Russia",
    "region": "Altai Krai",
    "altitude_top": 800,
    "altitude_base": 240,
    "vertical_drop": 560,
    "slopes_km": 10,
    "lifts": 5,
    "lat": 51.9965,
    "lng": 84.9831,
    "snowpark": false,
    "night_skiing": true,
    "glacier": false,
    "website": "https://belokurikha.ru"
  },
  {
    "id": "resort-big-wood-ru",
    "name": "BigWood",
    "country": "Russia",
    "region": "Murmansk Oblast",
    "altitude_top": 1060,
    "altitude_base": 380,
    "vertical_drop": 680,
    "slopes_km": 30,
    "lifts": 10,
    "lat": 67.6141,
    "lng": 33.6729,
    "snowpark": true,
    "night_skiing": true,
    "glacier": false,
    "website": "https://bigwood.ru"
  },
  {
    "id": "resort-sobolinaya-ru",
    "name": "Sobolinaya Mountain",
    "country": "Russia",
    "region": "Irkutsk Oblast",
    "altitude_top": 1004,
    "altitude_base": 520,
    "vertical_drop": 484,
    "slopes_km": 15,
    "lifts": 8,
    "lat": 51.5196,
    "lng": 104.1450,
    "snowpark": true,
    "night_skiing": true,
    "glacier": false,
    "website": "https://baikalski.net"
  },
  {
    "id": "resort-abzakovo-ru",
    "name": "Abzakovo",
    "country": "Russia",
    "region": "Bashkortostan",
    "altitude_top": 819,
    "altitude_base": 500,
    "vertical_drop": 319,
    "slopes_km": 18,
    "lifts": 6,
    "lat": 53.8077,
    "lng": 58.6358,
    "snowpark": true,
    "night_skiing": true,
    "glacier": false,
    "website": "https://abzakovo.com"
  },
  {
    "id": "resort-zavyalikha-ru",
    "name": "Zavyalikha",
    "country": "Russia",
    "region": "Chelyabinsk Oblast",
    "altitude_top": 860,
    "altitude_base": 430,
    "vertical_drop": 430,
    "slopes_km": 16,
    "lifts": 5,
    "lat": 54.3761,
    "lng": 58.9932,
    "snowpark": false,
    "night_skiing": true,
    "glacier": false,
    "website": "https://zavjalikha.su"
  },
  {
    "id": "resort-khibiny-ru",
    "name": "Khibiny",
    "country": "Russia",
    "region": "Murmansk Oblast",
    "altitude_top": 1075,
    "altitude_base": 390,
    "vertical_drop": 685,
    "slopes_km": 20,
    "lifts": 7,
    "lat": 67.6454,
    "lng": 33.6683,
    "snowpark": false,
    "night_skiing": true,
    "glacier": false,
    "website": "https://ski.ru"
  },
  {
    "id": "resort-manzherok-ru",
    "name": "Manzherok",
    "country": "Russia",
    "region": "Altai Republic",
    "altitude_top": 1240,
    "altitude_base": 470,
    "vertical_drop": 770,
    "slopes_km": 22,
    "lifts": 6,
    "lat": 51.8372,
    "lng": 85.8055,
    "snowpark": true,
    "night_skiing": true,
    "glacier": false,
    "website": "https://манжерок.рф"
  },
  {
    "id": "resort-igor-ru",
    "name": "Igora",
    "country": "Russia",
    "region": "Leningrad Oblast",
    "altitude_top": 205,
    "altitude_base": 120,
    "vertical_drop": 85,
    "slopes_km": 4,
    "lifts": 8,
    "lat": 60.5151,
    "lng": 30.2017,
    "snowpark": true,
    "night_skiing": true,
    "glacier": false,
    "website": "https://igora.ru"
  }
]