[
  {
    "id": "resort-bukovel-ua",
    "name": "Bukovel",
    "country": "Ukraine",
    "region": "Ivano-Frankivsk",
    "altitude_top": 1372,
    "altitude_base": 850,
    "vertical_drop": 522,
    "slopes_km": 68,
    "lifts": 17,
    "lat": 48.3537,
    "lng": 24.4100,
    "snowpark": true,
    "night_skiing": true,
    "glacier": false,
    "website": "https://bukovel.com"
  },
  {
    "id": "resort-dragobrat-ua",
    "name": "Dragobrat",
    "country": "Ukraine",
    "region": "Zakarpattia",
    "altitude_top": 1707,
    "altitude_base": 1300,
    "vertical_drop": 407,
    "slopes_km": 10,
    "lifts": 8,
    "lat": 48.2458,
    "lng": 24.2444,
    "snowpark": true,
    "night_skiing": false,
    "glacier": false,
    "website": "https://dragobrat.ws"
  },
  {
    "id": "resort-slavske-ua",
    "name": "Slavske",
    "country": "Ukraine",
    "region": "Lviv",
    "altitude_top": 1232,
    "altitude_base": 600,
    "vertical_drop": 632,
    "slopes_km": 22,
    "lifts": 12,
    "lat": 48.8471,
    "lng": 23.4452,
    "snowpark": false,
    "night_skiing": true,
    "glacier": false,
    "website": "https://slavske.info"
  },
  {
    "id": "resort-play-ua",
    "name": "Plai",
    "country": "Ukraine",
    "region": "Lviv",
    "altitude_top": 1060,
    "altitude_base": 600,
    "vertical_drop": 460,
    "slopes_km": 6,
    "lifts": 4,
    "lat": 48.8480,
    "lng": 23.2805,
    "snowpark": true,
    "night_skiing": true,
    "glacier": false,
    "website": "https://www.play-resort.com"
  },
  {
    "id": "resort-pylypets-ua",
    "name": "Pylypets",
    "country": "Ukraine",
    "region": "Zakarpattia",
    "altitude_top": 1498,
    "altitude_base": 700,
    "vertical_drop": 798,
    "slopes_km": 20,
    "lifts": 7,
    "lat": 48.6558,
    "lng": 23.2932,
    "snowpark": false,
    "night_skiing": false,
    "glacier": false,
    "website": "https://pylypets.com.ua"
  },
  {
    "id": "resort-izki-ua",
    "name": "Izki",
    "country": "Ukraine",
    "region": "Zakarpattia",
    "altitude_top": 1250,
    "altitude_base": 650,
    "vertical_drop": 600,
    "slopes_km": 8,
    "lifts": 5,
    "lat": 48.6235,
    "lng": 23.3508,
    "snowpark": false,
    "night_skiing": true,
    "glacier": false,
    "website": "https://izki.ua"
  },
  {
    "id": "resort-zakhar-berkut-ua",
    "name": "Zakhar Berkut",
    "country": "Ukraine",
    "region": "Lviv",
    "altitude_top": 1232,
    "altitude_base": 650,
    "vertical_drop": 582,
    "slopes_km": 9,
    "lifts": 4,
    "lat": 48.8479,
    "lng": 23.3434,
    "snowpark": false,
    "night_skiing": true,
    "glacier": false,
    "website": "https://zaharberkut.net"
  },
  {
    "id": "resort-myhovo-ua",
    "name": "Myhovo",
    "country": "Ukraine",
    "region": "Chernivtsi",
    "altitude_top": 800,
    "altitude_base": 500,
    "vertical_drop": 300,
    "slopes_km": 3,
    "lifts": 3,
    "lat": 48.1575,
    "lng": 25.3796,
    "snowpark": false,
    "night_skiing": true,
    "glacier": false,
    "website": "https://migovo.com.ua"
  },
  {
    "id": "resort-oryavchyk-zveniv-ua",
    "name": "Oryavchyk-Zveniv",
    "country": "Ukraine",
    "region": "Lviv",
    "altitude_top": 1050,
    "altitude_base": 650,
    "vertical_drop": 400,
    "slopes_km": 5,
    "lifts": 2,
    "lat": 48.8661,
    "lng": 23.2875,
    "snowpark": false,
    "night_skiing": false,
    "glacier": false,
    "website": "https://karpaty.info"
  },
  {
    "id": "resort-krasia-ua",
    "name": "Krasia",
    "country": "Ukraine",
    "region": "Zakarpattia",
    "altitude_top": 1036,
    "altitude_base": 550,
    "vertical_drop": 486,
    "slopes_km": 12,
    "lifts": 4,
    "lat": 48.8880,
    "lng": 22.5813,
    "snowpark": false,
    "night_skiing": true,
    "glacier": false,
    "website": "https://krasia.info"
  },
  {
    "id": "resort-vedmezha-ua",
    "name": "Vedmezha",
    "country": "Ukraine",
    "region": "Lviv",
    "altitude_top": 850,
    "altitude_base": 600,
    "vertical_drop": 250,
    "slopes_km": 4,
    "lifts": 3,
    "lat": 49.1541,
    "lng": 23.4244,
    "snowpark": false,
    "night_skiing": true,
    "glacier": false,
    "website": "https://vedmezha.com.ua"
  },
  {
    "id": "resort-protasiv-yar-ua",
    "name": "Protasiv Yar",
    "country": "Ukraine",
    "region": "Kyiv",
    "altitude_top": 220,
    "altitude_base": 160,
    "vertical_drop": 60,
    "slopes_km": 1,
    "lifts": 2,
    "lat": 50.4217,
    "lng": 30.4897,
    "snowpark": true,
    "night_skiing": true,
    "glacier": false,
    "website": "https://gornolyzhka.com.ua"
  }
]